[
  {
    "id": 1,
    "name": "F95 Magneto Mall, Raipur",
    "shortName": "Magneto Mall",
    "address": "2nd Floor, Magneto The Mall, GE Road, Raipur, Chhattisgarh – 492001",
    "phone": "+91 90392 83727",
    "landline": null,
    "email": "magneto@f95physio.com",
    "type": "main",
    "typeLabel": "Main Centre",
    "sessions": "~70 sessions/day",
    "hours": "Mon–Sat: 9:00 AM – 8:00 PM",
    "lat": 21.2190,
    "lng": 81.6468
  },
  {
    "id": 2,
    "name": "F95 GE Road, Raipur",
    "shortName": "GE Road",
    "address": "GE Road, Civil Lines, Raipur, Chhattisgarh – 492001",
    "phone": "+91 90392 83727",
    "landline": null,
    "email": "geroad@f95physio.com",
    "type": "main",
    "typeLabel": "Main Centre",
    "sessions": "~30 sessions/day",
    "hours": "Mon–Sat: 9:00 AM – 7:00 PM",
    "lat": 21.2514,
    "lng": 81.6296
  },
  {
    "id": 3,
    "name": "F95 Bilaspur Centre",
    "shortName": "Bilaspur",
    "address": "Bilaspur, Chhattisgarh – 495001",
    "phone": "+91 90392 83727",
    "landline": null,
    "email": "bilaspur@f95physio.com",
    "type": "main",
    "typeLabel": "Main Centre",
    "sessions": "~10 sessions/day",
    "hours": "Mon–Sat: 9:00 AM – 6:00 PM",
    "lat": 22.0797,
    "lng": 82.1409
  },
  {
    "id": 4,
    "name": "F95 @ GPIL Plant Centre",
    "shortName": "GPIL",
    "address": "GPIL Steel Plant, Raipur, Chhattisgarh",
    "phone": "+91 90392 83727",
    "landline": null,
    "email": "gpil@f95physio.com",
    "type": "plant",
    "typeLabel": "Industrial Plant Centre",
    "sessions": "~20 sessions/day",
    "hours": "Mon–Sat: 8:00 AM – 5:00 PM",
    "lat": 21.2250,
    "lng": 81.5800
  },
  {
    "id": 5,
    "name": "F95 @ SEML Plant Centre",
    "shortName": "SEML",
    "address": "SEML Plant, Raipur, Chhattisgarh",
    "phone": "+91 90392 83727",
    "landline": null,
    "email": "seml@f95physio.com",
    "type": "plant",
    "typeLabel": "Industrial Plant Centre",
    "sessions": "~20 sessions/day",
    "hours": "Mon–Sat: 8:00 AM – 5:00 PM",
    "lat": 21.2100,
    "lng": 81.5700
  },
  {
    "id": 6,
    "name": "F95 @ RR Ispat Plant Centre",
    "shortName": "RR Ispat",
    "address": "RR Ispat Steel Plant, Raipur, Chhattisgarh",
    "phone": "+91 90392 83727",
    "landline": null,
    "email": "rrispat@f95physio.com",
    "type": "plant",
    "typeLabel": "Industrial Plant Centre",
    "sessions": "~15 sessions/day",
    "hours": "Mon–Sat: 8:00 AM – 5:00 PM",
    "lat": 21.2050,
    "lng": 81.5900
  },
  {
    "id": 7,
    "name": "F95 @ Hira Power Plant Centre",
    "shortName": "Hira Power",
    "address": "Hira Power & Steels, Raipur, Chhattisgarh",
    "phone": "+91 90392 83727",
    "landline": null,
    "email": "hirapower@f95physio.com",
    "type": "plant",
    "typeLabel": "Industrial Plant Centre",
    "sessions": "~10 sessions/day",
    "hours": "Mon–Sat: 8:00 AM – 5:00 PM",
    "lat": 21.1950,
    "lng": 81.6100
  },
  {
    "id": 8,
    "name": "F95 @ Singhal Steels, Raigarh",
    "shortName": "Singhal Steels",
    "address": "Singhal Steels Plant, Raigarh, Chhattisgarh – 496001",
    "phone": "+91 90392 83727",
    "landline": null,
    "email": "singhalsteels@f95physio.com",
    "type": "plant",
    "typeLabel": "Industrial Plant Centre",
    "sessions": "~20 sessions/day",
    "hours": "Mon–Sat: 8:00 AM – 5:00 PM",
    "lat": 21.8979,
    "lng": 83.3960
  }
]
